TimeUS,wind_vect_x,wind_vect_y,speed,direction
2016-11-15 01:03:00,-1.7053827506047416,0.27072596057457493,1.7267376383774173,170.97968506268256
2016-11-15 01:03:05,-1.76213185449308,0.06891747338752784,1.7634790304274508,177.76028741754777
2016-11-15 01:03:10,-1.7615628333433346,0.011950640035189516,1.7616033701187812,179.61130496213448
2016-11-15 01:03:15,,,,
2016-11-15 01:03:20,1.6485878216882293,-0.9787818965852765,1.9172521500579447,329.30200224181107
2016-11-15 01:03:25,1.2079924051377255,-0.5814399079635156,1.3406408980196929,334.29721095488173
2016-11-15 01:03:30,0.7703460485558681,-0.018328726421175102,0.7705640640062721,358.63702738239886
2016-11-15 01:03:35,0.5239746775788456,0.9300845812951352,1.067523672387082,60.604725058216786
2016-11-15 01:03:40,-0.07002709435163923,0.7687226562339413,0.7719056394085353,95.20501569737809
2016-11-15 01:03:45,0.32561896329734524,0.6911058921221945,0.7639732085517478,64.77223084732951
2016-11-15 01:03:50,0.6404180606390009,0.6381250106119017,0.9040679297271077,44.89724089015693
2016-11-15 01:03:55,0.20631208377556895,0.410367422996234,0.45931045902351,63.30905220944703
2016-11-15 01:04:00,0.5272657855283246,-0.3701720868772875,0.6442333292308674,324.9288516406281
2016-11-15 01:04:05,-0.5302023769063888,-0.2790067110397411,0.5991321267319906,207.7545486680791
2016-11-15 01:04:10,0.08214745372602449,-1.0020139805832768,1.0053756618488499,274.6867609247797
2016-11-15 01:04:15,0.17440261307404403,-0.878385532351073,0.895531917293143,281.22997434482403
2016-11-15 01:04:20,0.35799230380533403,-0.6835396859887491,0.7716119438587303,297.64253564040297
2016-11-15 01:04:25,0.17991296358329545,-0.8408906559514454,0.8599219556051446,282.0766524492261
2016-11-15 01:04:30,0.09423684206059765,-0.5510503415175851,0.5590501420160818,279.7044532951421
2016-11-15 01:04:35,0.4262179978934246,-0.5435325446609678,0.6907165908199298,308.1022222771349
2016-11-15 01:04:40,0.38581318820091226,-0.7860262553266975,0.8756078404472307,296.1436548514915
2016-11-15 01:04:45,-0.04464305776869746,-0.8555491021491984,0.8567130609458682,267.0129814303709
2016-11-15 01:04:50,-0.8871534309997652,-1.8308908364070542,2.034503001957475,244.14761138089804
2016-11-15 01:04:55,,,,
2016-11-15 01:05:00,,,,
2016-11-15 01:05:05,,,,
2016-11-15 01:05:10,,,,
2016-11-15 01:05:15,,,,
2016-11-15 01:05:20,,,,
2016-11-15 01:05:25,,,,
2016-11-15 01:05:30,,,,
2016-11-15 01:05:35,,,,
2016-11-15 01:05:40,,,,
2016-11-15 01:05:45,,,,
2016-11-15 01:05:50,,,,
2016-11-15 01:05:55,,,,
2016-11-15 01:06:00,,,,
2016-11-15 01:06:05,,,,
2016-11-15 01:06:10,,,,
2016-11-15 01:06:15,,,,
2016-11-15 01:06:20,,,,
2016-11-15 01:06:25,,,,
2016-11-15 01:06:30,,,,
2016-11-15 01:06:35,,,,
2016-11-15 01:06:40,,,,
2016-11-15 01:06:45,,,,
2016-11-15 01:06:50,,,,
2016-11-15 01:06:55,,,,
2016-11-15 01:07:00,,,,
2016-11-15 01:07:05,,,,
2016-11-15 01:07:10,,,,
2016-11-15 01:07:15,,,,
2016-11-15 01:07:20,,,,
2016-11-15 01:07:25,,,,
2016-11-15 01:07:30,,,,
2016-11-15 01:07:35,,,,
2016-11-15 01:07:40,,,,
2016-11-15 01:07:45,,,,
2016-11-15 01:07:50,,,,
2016-11-15 01:07:55,,,,
2016-11-15 01:08:00,,,,
2016-11-15 01:08:05,,,,
2016-11-15 01:08:10,,,,
2016-11-15 01:08:15,,,,
2016-11-15 01:08:20,,,,
2016-11-15 01:08:25,,,,
2016-11-15 01:08:30,,,,
2016-11-15 01:08:35,1.1130915404585253,-0.5758118490658978,1.2532087068661075,332.6470848495628
2016-11-15 01:08:40,0.9871912488676401,-0.6257883240078985,1.168827441629202,327.6290670981378
2016-11-15 01:08:45,0.9014297932271681,-1.1538201757813034,1.4641983028803074,307.9989723766776
2016-11-15 01:08:50,-0.31364013226923404,-1.9683572027175533,1.9931884532226085,260.94653869098147
2016-11-15 01:08:55,0.11987633697469172,-2.044182179035346,2.0476940975771174,273.3561348121721
2016-11-15 01:09:00,-0.20440608538108462,-2.1387186131406555,2.148464371111401,264.5405905319602
2016-11-15 01:09:05,-0.14231934364115356,-2.334844675584301,2.3391781579603568,266.51187879850545
2016-11-15 01:09:10,0.06361073824901144,-2.2704775377227535,2.271368436719187,271.6048049977139
2016-11-15 01:09:15,9.901245403265602e-05,-2.471037341201521,2.4710373431851953,270.0022957952264
2016-11-15 01:09:20,-0.0993275008131769,-2.322894332402475,2.325016996050853,267.55151074550207
2016-11-15 01:09:25,0.2907466548753578,-2.0358388482010654,2.0564954250291567,278.12768995782477
2016-11-15 01:09:30,-0.20808775568312624,-2.3045002912289227,2.3138759919968552,264.8403978725736
2016-11-15 01:09:35,0.7201010787325869,-2.001236130644679,2.1268501626089042,289.7901588674957
2016-11-15 01:09:40,0.3132707578494014,-2.0112067493525383,2.035458463433912,278.8533957392066
2016-11-15 01:09:45,0.5664378711454254,-1.743163466887741,1.8328859032028835,288.0014783790035
2016-11-15 01:09:50,1.16593571151127,-1.478451619284253,1.8828768610670006,308.25999935237223
2016-11-15 01:09:55,0.21849332081336367,-2.246298839785688,2.256900044056577,275.5555775540596
2016-11-15 01:10:00,0.94690470322087,-2.110886557652322,2.3135407012324363,294.16012288774476
2016-11-15 01:10:05,1.411183196081512,-2.069607249795992,2.5049375603617268,304.28852763903865
2016-11-15 01:10:10,1.540429229297237,-1.5632091921616955,2.194662887309142,314.57947024902774
2016-11-15 01:10:15,,,,
2016-11-15 01:10:20,,,,
2016-11-15 01:10:25,,,,
2016-11-15 01:10:30,,,,
2016-11-15 01:10:35,,,,
2016-11-15 01:10:40,,,,
2016-11-15 01:10:45,,,,
2016-11-15 01:10:50,,,,
2016-11-15 01:10:55,,,,
2016-11-15 01:11:00,,,,
2016-11-15 01:11:05,,,,
2016-11-15 01:11:10,,,,
2016-11-15 01:11:15,,,,
2016-11-15 01:11:20,,,,
2016-11-15 01:11:25,,,,
2016-11-15 01:11:30,,,,
2016-11-15 01:11:35,,,,
2016-11-15 01:11:40,,,,
2016-11-15 01:11:45,,,,
2016-11-15 01:11:50,,,,
2016-11-15 01:11:55,,,,
2016-11-15 01:12:00,,,,
2016-11-15 01:12:05,,,,
2016-11-15 01:12:10,,,,
2016-11-15 01:12:15,,,,
2016-11-15 01:12:20,0.8948928178782937,-1.1086663153494094,1.424771614779221,308.9097605385531
2016-11-15 01:12:25,0.6196398978040958,-1.2361302453873875,1.3827406070959778,296.6234152412203
2016-11-15 01:12:30,0.5102618775042765,-2.4977096734647284,2.549298098801603,281.5461864030789
2016-11-15 01:12:35,-0.74651202519157,-2.974421924489801,3.066670179305435,255.91107382700918
2016-11-15 01:12:40,-1.0644466991485808,-2.8883858366403503,3.0782819098699985,249.76982153419175
2016-11-15 01:12:45,-0.23663835326385635,-2.63286123764655,2.6434742304280467,264.86412516333183
2016-11-15 01:12:50,0.03913994938394845,-2.9710656788487886,2.9713234767811785,270.7547541645925
2016-11-15 01:12:55,0.9316904210828,-2.6143586929094482,2.775413197332722,289.61476416185087
2016-11-15 01:13:00,0.580070135222948,-2.60713626098797,2.6708876511631674,282.54360306961695
2016-11-15 01:13:05,0.08853618734654838,-3.1062661913979546,3.107527684235784,271.6326279021069
2016-11-15 01:13:10,0.04778788616724439,-3.196350453249375,3.1967076660295075,270.85655194859584
2016-11-15 01:13:15,0.8999961694958495,-2.5133045090806196,2.669586608535519,289.7020786573444
2016-11-15 01:13:20,0.4119293629891872,-2.83417724958865,2.8639564385965377,278.2696645275547
2016-11-15 01:13:25,0.11065018608878005,-2.6549773442115336,2.6572821005602716,272.38650695345456
2016-11-15 01:13:30,0.5294478467947231,-2.7265767610366307,2.7775053296619565,280.98896428753653
2016-11-15 01:13:35,0.5041305781400247,-2.781090774022938,2.8264135460281286,280.27448505564087
2016-11-15 01:13:40,0.9827903241719679,-2.6148739697127916,2.7934642827084035,290.598537317551
2016-11-15 01:13:45,0.6926225826633673,-2.981429701239391,3.0608249060421078,283.07852567736103
2016-11-15 01:13:50,0.8846805187693257,-2.449305774252823,2.6041809453411995,289.8595390989557
2016-11-15 01:13:55,1.6331458548055822,-2.7523641261622167,3.2004177330550707,300.68324605363154
2016-11-15 01:14:00,0.686678210732598,-2.387025323684386,2.483831085441494,286.04899798593755
2016-11-15 01:14:05,0.6332109297100469,-1.1530834231025564,1.3155065420354894,298.77320513080906
2016-11-15 01:14:10,,,,
2016-11-15 01:14:15,,,,
2016-11-15 01:14:20,,,,
2016-11-15 01:14:25,,,,
2016-11-15 01:14:30,,,,
2016-11-15 01:14:35,,,,
2016-11-15 01:14:40,,,,
2016-11-15 01:14:45,,,,
2016-11-15 01:14:50,,,,
2016-11-15 01:14:55,,,,
2016-11-15 01:15:00,,,,
2016-11-15 01:15:05,,,,
2016-11-15 01:15:10,,,,
2016-11-15 01:15:15,,,,
2016-11-15 01:15:20,,,,
2016-11-15 01:15:25,,,,
2016-11-15 01:15:30,,,,
2016-11-15 01:15:35,,,,
2016-11-15 01:15:40,,,,
2016-11-15 01:15:45,,,,
2016-11-15 01:15:50,0.5180744740565041,-1.6917752072383816,1.7693231792115856,287.02622631660705
2016-11-15 01:15:55,0.5370425082758596,-1.6783790887836743,1.7622062936448568,287.7434701091691
2016-11-15 01:16:00,-0.041965515339066686,-2.911196432990871,2.9114988881908306,269.17412636233234
2016-11-15 01:16:05,-0.5139846048638355,-4.096767518788736,4.128884144298487,262.84897737344767
2016-11-15 01:16:10,-1.1314983824425975,-4.038005866267034,4.19354026634742,254.34648154577178
2016-11-15 01:16:15,-0.6540401465316916,-4.353303879516885,4.402161194310353,261.4557894044242
2016-11-15 01:16:20,-0.40758021031773606,-4.375119920660207,4.394063716879903,264.67776417821517
2016-11-15 01:16:25,0.015067657470805223,-4.355857062835042,4.35588312356422,270.19819514836377
2016-11-15 01:16:30,0.025439018668977853,-4.005338441630498,4.005419225957985,270.3638965415405
2016-11-15 01:16:35,0.017171195181442993,-3.895724352058092,3.8957621946369363,270.2525411330422
2016-11-15 01:16:40,-0.022725215344967548,-4.48845220647393,4.488509735448188,269.7099116260475
2016-11-15 01:16:45,-0.0926527891044744,-4.362473674717881,4.363457471081317,268.78330135871585
2016-11-15 01:16:50,1.3299309829168433,-3.590394770806395,3.828792372218173,290.3253139195381
2016-11-15 01:16:55,1.1408365699494798,-3.8285587727009993,3.9949180661635446,286.5930402266937
2016-11-15 01:17:00,1.734252833238686,-3.8230589617174062,4.198024858712032,294.40045211768313
2016-11-15 01:17:05,1.3071019069831096,-3.955496315522344,4.165869236707955,288.28624431317314
2016-11-15 01:17:10,1.2968200536056174,-3.9604826167729734,4.167393047121255,288.13051173981063
2016-11-15 01:17:15,1.183641368407984,-3.875781101725417,4.052491337128139,286.98237141319055
2016-11-15 01:17:20,0.9828828490513832,-4.111704225127393,4.227548974274552,283.44399144089317
2016-11-15 01:17:25,1.9102641012569457,-3.1920506102405306,3.719986026168371,300.8981658956993
2016-11-15 01:17:30,1.307025755680676,-2.480939049827861,2.804170981765094,297.781473775947
2016-11-15 01:17:35,1.0403457051821632,-1.2200343904952529,1.6033724147190807,310.4548360614589
2016-11-15 01:17:40,,,,
2016-11-15 01:17:45,,,,
2016-11-15 01:17:50,,,,
2016-11-15 01:17:55,,,,
2016-11-15 01:18:00,,,,
2016-11-15 01:18:05,,,,
2016-11-15 01:18:10,,,,
2016-11-15 01:18:15,,,,
2016-11-15 01:18:20,,,,
2016-11-15 01:18:25,,,,
2016-11-15 01:18:30,,,,
2016-11-15 01:18:35,,,,
2016-11-15 01:18:40,,,,
2016-11-15 01:18:45,,,,
2016-11-15 01:18:50,,,,
2016-11-15 01:18:55,,,,
2016-11-15 01:19:00,,,,
2016-11-15 01:19:05,,,,
2016-11-15 01:19:10,,,,
2016-11-15 01:19:15,,,,
2016-11-15 01:19:20,,,,
2016-11-15 01:19:25,,,,
2016-11-15 01:19:30,0.6280394026925594,-1.6882082019171407,1.8012441323581687,290.40597473548115
2016-11-15 01:19:35,0.5349797559968639,-1.7129403488564205,1.7945383746431336,287.34445250114214
2016-11-15 01:19:40,-0.2198797067032452,-4.006670031251701,4.012698820588261,266.8588491595592
2016-11-15 01:19:45,-0.6166731319713251,-4.725808626997591,4.765873784596082,262.5654530680199
2016-11-15 01:19:50,-0.4692391064115209,-4.734490005691359,4.75768651268421,264.33985409616764
2016-11-15 01:19:55,-0.44220567170275854,-5.196567539256923,5.215348506681488,265.13609194435537
2016-11-15 01:20:00,-0.16203938109831784,-5.008500682162161,5.0111212162794025,268.1469633329325
2016-11-15 01:20:05,0.37817777991741497,-4.748205634479089,4.7632420871211485,274.55379327864745
2016-11-15 01:20:10,0.8164094802222979,-4.705647949021027,4.775944624838383,279.84259287446395
2016-11-15 01:20:15,0.5534274077939971,-5.150060060641454,5.17971046718944,276.13348916883245
2016-11-15 01:20:20,0.8582261238398381,-4.957961588211963,5.031693073889389,279.82061774493513
2016-11-15 01:20:25,0.22713682461104728,-4.858680372050065,4.863986646243896,272.6765525663206
2016-11-15 01:20:30,0.6384413238002407,-5.004552894108783,5.0451121884323245,277.27007337248375
2016-11-15 01:20:35,1.26264747474604,-4.874318018831273,5.035201564404923,284.522728593715
2016-11-15 01:20:40,1.294687957790066,-5.17100011010598,5.330615259682757,284.0564512653123
2016-11-15 01:20:45,1.0734376778459902,-5.205678696362721,5.315200761775991,281.6513748714995
2016-11-15 01:20:50,1.754084170453706,-4.900354731820092,5.204833116893166,289.69485075417856
2016-11-15 01:20:55,2.0657917316561276,-4.523909730310208,4.973253937471341,294.5432683088692
2016-11-15 01:21:00,1.4240315831689614,-4.2805642314755685,4.511218913957814,288.40093263804346
2016-11-15 01:21:05,1.9648504249610717,-3.6545490449138143,4.149260887694359,298.26447982333275
2016-11-15 01:21:10,1.616286191649411,-4.4778932928542705,4.760662705496559,289.84694150819814
2016-11-15 01:21:15,0.265046013102668,-2.043198064259574,2.060317383039732,277.3912004537957
2016-11-15 01:21:20,,,,
2016-11-15 01:21:25,,,,
2016-11-15 01:21:30,,,,
2016-11-15 01:21:35,,,,
2016-11-15 01:21:40,,,,
2016-11-15 01:21:45,,,,
2016-11-15 01:21:50,,,,
2016-11-15 01:21:55,,,,
2016-11-15 01:22:00,,,,
2016-11-15 01:22:05,,,,
2016-11-15 01:22:10,,,,
2016-11-15 01:22:15,,,,
2016-11-15 01:22:20,,,,
2016-11-15 01:22:25,,,,
2016-11-15 01:22:30,,,,
2016-11-15 01:22:35,,,,
2016-11-15 01:22:40,,,,
2016-11-15 01:22:45,,,,
2016-11-15 01:22:50,,,,
2016-11-15 01:22:55,,,,
2016-11-15 01:23:00,,,,
2016-11-15 01:23:05,,,,
2016-11-15 01:23:10,,,,
2016-11-15 01:23:15,,,,
2016-11-15 01:23:20,,,,
2016-11-15 01:23:25,,,,
2016-11-15 01:23:30,,,,
2016-11-15 01:23:35,,,,
2016-11-15 01:23:40,,,,
2016-11-15 01:23:45,,,,
2016-11-15 01:23:50,,,,
2016-11-15 01:23:55,,,,
2016-11-15 01:24:00,,,,
2016-11-15 01:24:05,,,,
2016-11-15 01:24:10,,,,
2016-11-15 01:24:15,,,,
2016-11-15 01:24:20,,,,
2016-11-15 01:24:25,,,,
2016-11-15 01:24:30,,,,
2016-11-15 01:24:35,,,,
2016-11-15 01:24:40,-0.1388304597164853,-2.0159292783727922,2.020704023835687,266.0604470398138
2016-11-15 01:24:45,0.22298022009038831,-3.5789463055824804,3.585885781336885,273.56510888307224
2016-11-15 01:24:50,-0.222713112096932,-5.3664280037950665,5.371047444420483,267.62352110240874
2016-11-15 01:24:55,-0.6915890313757045,-5.831047887126415,5.8719174764535484,263.2360558228243
2016-11-15 01:25:00,-1.1167016079421923,-6.276111583851485,6.374684234857086,259.9110090368998
2016-11-15 01:25:05,-0.22431350089386626,-6.275429900561926,6.279437632746259,267.9528498303351
2016-11-15 01:25:10,0.00944470204674772,-6.174877284518586,6.1748845075240375,270.08763593495166
2016-11-15 01:25:15,1.2642176210223415,-6.133556217008118,6.262488168492003,281.6464182130846
2016-11-15 01:25:20,1.7696946615790923,-5.628759791222779,5.900403035599165,287.4532642344895
2016-11-15 01:25:25,1.7357188471461253,-6.157959534390368,6.397904777622712,285.7413346426906
2016-11-15 01:25:30,2.0032480449091983,-5.832326807118122,6.166768903928636,288.9562239264802
2016-11-15 01:25:35,2.038704666383186,-5.624543288595424,5.982625169774253,289.92384946303395
2016-11-15 01:25:40,2.4105106986823133,-5.474492327506709,5.981691071293445,293.76469776342725
2016-11-15 01:25:45,2.0467949366129727,-5.840173602856345,6.188456772414636,289.3139393749285
2016-11-15 01:25:50,1.68091443571002,-6.113013552277009,6.339905995399357,285.374819642587
2016-11-15 01:25:55,2.26090940939822,-5.886156671386473,6.305438265308201,291.0120932822961
2016-11-15 01:26:00,2.4369222015036365,-5.198101586341947,5.740979874386601,295.11765505653426
2016-11-15 01:26:05,2.9091818225631667,-5.394815007660093,6.129222450164989,298.3359946071031
2016-11-15 01:26:10,3.521819812010809,-5.168726017104983,6.254513844270375,304.2693811519432
2016-11-15 01:26:15,3.159446565421411,-4.805543537232238,5.751117394731887,303.3232689487537
2016-11-15 01:26:20,3.1609327038988067,-5.444961410443039,6.295959046864176,300.13620877125527
2016-11-15 01:26:25,0.8806804203203286,-2.354718558836402,2.51402018569147,290.5061314934141
2016-11-15 01:26:30,,,,
2016-11-15 01:26:35,,,,
2016-11-15 01:26:40,,,,
2016-11-15 01:26:45,,,,
2016-11-15 01:26:50,,,,
2016-11-15 01:26:55,,,,
2016-11-15 01:27:00,,,,
2016-11-15 01:27:05,,,,
2016-11-15 01:27:10,,,,
2016-11-15 01:27:15,,,,
2016-11-15 01:27:20,,,,
2016-11-15 01:27:25,,,,
2016-11-15 01:27:30,,,,
2016-11-15 01:27:35,,,,
2016-11-15 01:27:40,,,,
2016-11-15 01:27:45,,,,
2016-11-15 01:27:50,,,,
2016-11-15 01:27:55,,,,
2016-11-15 01:28:00,,,,
2016-11-15 01:28:05,,,,
2016-11-15 01:28:10,,,,
2016-11-15 01:28:15,,,,
2016-11-15 01:28:20,,,,
2016-11-15 01:28:25,,,,
2016-11-15 01:28:30,,,,
2016-11-15 01:28:35,,,,
2016-11-15 01:28:40,,,,
2016-11-15 01:28:45,,,,
2016-11-15 01:28:50,,,,
2016-11-15 01:28:55,,,,
2016-11-15 01:29:00,,,,
2016-11-15 01:29:05,,,,
2016-11-15 01:29:10,,,,
2016-11-15 01:29:15,,,,
2016-11-15 01:29:20,,,,
2016-11-15 01:29:25,,,,
2016-11-15 01:29:30,,,,
2016-11-15 01:29:35,,,,
2016-11-15 01:29:40,,,,
2016-11-15 01:29:45,,,,
2016-11-15 01:29:50,,,,
2016-11-15 01:29:55,,,,
2016-11-15 01:30:00,,,,
2016-11-15 01:30:05,,,,
2016-11-15 01:30:10,,,,
2016-11-15 01:30:15,,,,
2016-11-15 01:30:20,,,,
2016-11-15 01:30:25,,,,
2016-11-15 01:30:30,,,,
2016-11-15 01:30:35,,,,
2016-11-15 01:30:40,,,,
2016-11-15 01:30:45,,,,
2016-11-15 01:30:50,,,,
2016-11-15 01:30:55,,,,
2016-11-15 01:31:00,,,,
2016-11-15 01:31:05,,,,
2016-11-15 01:31:10,,,,
2016-11-15 01:31:15,,,,
2016-11-15 01:31:20,,,,
2016-11-15 01:31:25,,,,
2016-11-15 01:31:30,,,,
2016-11-15 01:31:35,,,,
2016-11-15 01:31:40,,,,
2016-11-15 01:31:45,,,,
2016-11-15 01:31:50,,,,
2016-11-15 01:31:55,,,,
2016-11-15 01:32:00,,,,
2016-11-15 01:32:05,,,,
2016-11-15 01:32:10,,,,
2016-11-15 01:32:15,,,,
2016-11-15 01:32:20,,,,
2016-11-15 01:32:25,,,,
2016-11-15 01:32:30,,,,
2016-11-15 01:32:35,,,,
2016-11-15 01:32:40,,,,
2016-11-15 01:32:45,,,,
2016-11-15 01:32:50,,,,
2016-11-15 01:32:55,,,,
2016-11-15 01:33:00,,,,
2016-11-15 01:33:05,,,,
2016-11-15 01:33:10,,,,
2016-11-15 01:33:15,,,,
2016-11-15 01:33:20,,,,
2016-11-15 01:33:25,,,,
2016-11-15 01:33:30,,,,
2016-11-15 01:33:35,,,,
2016-11-15 01:33:40,,,,
2016-11-15 01:33:45,,,,
2016-11-15 01:33:50,,,,
2016-11-15 01:33:55,0.9248991247342149,-1.2999857575540035,1.5954314027175764,305.4306588225216
2016-11-15 01:34:00,0.8802931220447064,-1.3953141332866799,1.6497931722700196,302.2475171766823
2016-11-15 01:34:05,0.5354504365881682,-1.0640469468305798,1.1911771803984235,296.7124863751661
2016-11-15 01:34:10,0.5241489245154541,-2.158312238711822,2.221045657982731,283.65010279614825
2016-11-15 01:34:15,0.11512590816973758,-1.5580543236301316,1.5623019074796183,274.2259521455884
2016-11-15 01:34:20,0.2502153890500817,-2.3706903819572505,2.3838583489842886,276.0249977422757
2016-11-15 01:34:25,0.23197281454646887,-2.1132644102322478,2.125958102654627,276.264271795451
2016-11-15 01:34:30,0.25969707842906653,-2.277402572115203,2.292161653989861,276.5054596607911
2016-11-15 01:34:35,0.4462297270012456,-1.692983507847961,1.7508038516934994,284.7659616876821
2016-11-15 01:34:40,0.07752591573412207,-1.47648411797029,1.4785180479889042,273.00567568007745
2016-11-15 01:34:45,-0.13755651329580515,-1.510288937831563,1.5165402962290484,264.7958818316271
2016-11-15 01:34:50,-0.38808570198883,-1.7440302649832053,1.7866874593127788,257.4548068496324
2016-11-15 01:34:55,0.8734849426046688,-0.9212341558710784,1.2695071149468127,313.4759825894267
2016-11-15 01:35:00,1.3714379771994398,-0.664932141019313,1.5241315158034816,334.13389637084765
2016-11-15 01:35:05,,,,
2016-11-15 01:35:10,,,,
2016-11-15 01:35:15,,,,
2016-11-15 01:35:20,,,,
2016-11-15 01:35:25,0.5926122019828524,-1.6593260982594527,1.7619739845706872,289.65369355039354
2016-11-15 01:35:30,0.5718688125566928,-1.5172819619918672,1.6214741721535042,290.65159948862294
2016-11-15 01:35:35,0.3894095612779639,-1.2551004293753718,1.314122100199574,287.2371135496523
2016-11-15 01:35:40,0.5663827982692983,-1.8419360083006864,1.9270489700186726,287.0923070209868
2016-11-15 01:35:45,0.6088379517404728,-1.7836718221015855,1.8847198254485267,288.8468088523773
2016-11-15 01:35:50,0.7124279727054299,-1.7314219993463316,1.8722648733856053,292.3656893172413
2016-11-15 01:35:55,0.4766395354281091,-1.7304954904986258,1.7949372939936379,285.39943569816677
2016-11-15 01:36:00,0.5392315963238862,-1.496745354128047,1.5909171473014865,289.812541284027
2016-11-15 01:36:05,0.39812863401164167,-1.7692710888738705,1.8135122263566097,282.68169776438697
2016-11-15 01:36:10,0.37247871122274545,-1.866571664845353,1.9033733659788639,281.2852668718875
2016-11-15 01:36:15,0.17287875103906994,-1.9304203084487572,1.9381459258353648,275.11747062758263
2016-11-15 01:36:20,0.3380122136522811,-1.7781559672924325,1.8099974863506858,280.7630231293963
2016-11-15 01:36:25,0.15949178687751905,-1.8787011463263963,1.8854589964487425,274.8524734025345
2016-11-15 01:36:30,0.64016146766287,-2.0072251687698954,2.106836392039879,287.6889685500104
2016-11-15 01:36:35,0.7717140313037641,-1.8941584929839017,2.045331010534518,292.1668602755345
2016-11-15 01:36:40,0.5850579453769573,-1.9478871063686545,2.033852742606002,286.7179114218127
2016-11-15 01:36:45,0.5602714783303673,-1.8253922912876637,1.9094400086210936,287.06293052999825
2016-11-15 01:36:50,0.9676337696822649,-0.9183476937783708,1.3340455760196361,316.4969614608639
2016-11-15 01:36:55,,,,
2016-11-15 01:37:00,,,,
2016-11-15 01:37:05,,,,
2016-11-15 01:37:10,,,,
2016-11-15 01:37:15,,,,
2016-11-15 01:37:20,,,,
2016-11-15 01:37:25,,,,
2016-11-15 01:37:30,,,,
2016-11-15 01:37:35,,,,
2016-11-15 01:37:40,,,,
2016-11-15 01:37:45,,,,
2016-11-15 01:37:50,,,,
2016-11-15 01:37:55,,,,
2016-11-15 01:38:00,,,,
2016-11-15 01:38:05,,,,
2016-11-15 01:38:10,,,,
2016-11-15 01:38:15,,,,
2016-11-15 01:38:20,0.6448312688492427,-1.5020469973273907,1.6346108244673883,293.23392804251637
2016-11-15 01:38:25,0.6646689579311397,-1.4726804243090157,1.6157266030428072,294.29121715217474
2016-11-15 01:38:30,0.17543272787112738,-2.7289726154406306,2.7346056713597995,273.67821308805856
2016-11-15 01:38:35,0.40914876499029057,-3.840606048541484,3.8623383502726054,276.0809185080391
2016-11-15 01:38:40,0.004668735924930188,-4.352389061044961,4.352391565082233,270.06146021364555
2016-11-15 01:38:45,-0.06663465456958134,-4.053810990417612,4.054358608117964,269.05828350500144
2016-11-15 01:38:50,-0.051677246426519566,-3.3677805375978496,3.3681769976088085,269.12088815472737
2016-11-15 01:38:55,-0.14965785650747057,-4.176037781320402,4.178718586484359,267.94755317453956
2016-11-15 01:39:00,-0.3739133314756095,-3.8664786421837576,3.8845164782657755,264.4763066303937
2016-11-15 01:39:05,-0.2861321533580886,-3.612489638115239,3.623803663924869,265.4712646546194
2016-11-15 01:39:10,-0.30768236192191284,-3.936206866902212,3.9482138917345875,265.53043639416086
2016-11-15 01:39:15,-0.07078488061177152,-3.7952095163175454,3.795869567315305,268.9314938427918
2016-11-15 01:39:20,0.1882897589224374,-3.4693177729817517,3.4744235267511834,273.10655740515364
2016-11-15 01:39:25,0.0637951606659088,-3.8257175649077264,3.8262494310967097,270.95533835355855
2016-11-15 01:39:30,-0.08717268500247288,-3.994233478060383,3.9951846207990047,268.7497390453592
2016-11-15 01:39:35,-0.3660782799416877,-3.8055505199994397,3.823117584813874,264.5052891712394
2016-11-15 01:39:40,0.06895054234322118,-3.7655615120939476,3.766192729886866,271.0490158301436
2016-11-15 01:39:45,0.49119754860855197,-2.638416697729549,2.683750678177306,280.5460959423776
2016-11-15 01:39:50,0.7410588836106815,-1.4120494756253976,1.5946949522063052,297.6909762523668
2016-11-15 01:39:55,,,,
2016-11-15 01:40:00,,,,
2016-11-15 01:40:05,,,,
2016-11-15 01:40:10,,,,
2016-11-15 01:40:15,,,,
2016-11-15 01:40:20,,,,
2016-11-15 01:40:25,,,,
2016-11-15 01:40:30,,,,
2016-11-15 01:40:35,,,,
2016-11-15 01:40:40,,,,
2016-11-15 01:40:45,,,,
2016-11-15 01:40:50,,,,
2016-11-15 01:40:55,,,,
2016-11-15 01:41:00,,,,
2016-11-15 01:41:05,,,,
2016-11-15 01:41:10,,,,
2016-11-15 01:41:15,,,,
2016-11-15 01:41:20,,,,
2016-11-15 01:41:25,,,,
2016-11-15 01:41:30,,,,
2016-11-15 01:41:35,,,,
2016-11-15 01:41:40,,,,
2016-11-15 01:41:45,,,,
2016-11-15 01:41:50,,,,
2016-11-15 01:41:55,,,,
2016-11-15 01:42:00,,,,
2016-11-15 01:42:05,,,,
2016-11-15 01:42:10,,,,
2016-11-15 01:42:15,,,,
2016-11-15 01:42:20,0.4962548044636798,-1.8137788181654622,1.8804420842394975,285.3017947759903
2016-11-15 01:42:25,0.21432215552014927,-2.5304677482450457,2.5395277142128525,274.8412067994017
2016-11-15 01:42:30,-0.7975575383530991,-5.285760139147415,5.345592415774285,261.4194843280591
2016-11-15 01:42:35,-0.7458550820910134,-5.558797528426794,5.608612106887481,262.35794559304054
2016-11-15 01:42:40,-0.9862414063471932,-5.050210008770031,5.145609122764251,258.9499389228089
2016-11-15 01:42:45,-0.45863946220835805,-5.041000916245454,5.0618218453322,264.8014379326295
2016-11-15 01:42:50,-1.1761033477842633,-5.464922691178161,5.590044642507188,257.85464652250283
2016-11-15 01:42:55,-1.4615450280865843,-5.1863121015442735,5.388315792875283,254.26173095717186
2016-11-15 01:43:00,-1.4744634667231884,-5.827365584013487,6.0110092467443605,255.80080130630756
2016-11-15 01:43:05,-1.3801327289539274,-5.479471246382927,5.650608063692533,255.86278041642652
2016-11-15 01:43:10,-1.8317966679007387,-5.2401531281303315,5.551097534612984,250.73194088891134
2016-11-15 01:43:15,-1.6088907435483197,-5.583176327858759,5.810368949786053,253.92473048359204
2016-11-15 01:43:20,-1.7296803595571573,-5.159532130181852,5.441742914601595,251.4667998196858
2016-11-15 01:43:25,-1.753110820456321,-5.413448673318979,5.6902393699615175,252.05578470621754
2016-11-15 01:43:30,-1.9567974380333721,-5.214162777446094,5.569250369950908,249.42963655738924
2016-11-15 01:43:35,-1.1933476079051621,-5.505520522515293,5.63336797458945,257.77005806366094
2016-11-15 01:43:40,-1.5854502299896878,-5.558584230249358,5.78026911800404,254.08049667435432
2016-11-15 01:43:45,-1.7748318834538157,-5.152232080385072,5.449359927979919,250.99228440502532
2016-11-15 01:43:50,-0.9770936674264157,-6.01972802137134,6.098511087651485,260.78042704295905
2016-11-15 01:43:55,-0.07191762518866836,-2.6079891040023986,2.6089805118873564,268.42041809293636
